[{"id":1,"identifier":"LY2301","responsibleState":"SERBIA / MONTENEGRO","city":"BACKI JARAK","name":"DTD-BACKI JARAK","icao":null,"iata":null,"type":"AD","lat":45.365408,"lng":19.887603,"effectiveDate":1473976800000},{"id":2,"identifier":"LYBT","responsibleState":"SERBIA / MONTENEGRO","city":"BEOGRAD","name":"BATAJNICA","icao":"LYBT","iata":"BJY","type":"AH","lat":44.941003,"lng":20.250728,"effectiveDate":1425510000000},{"id":3,"identifier":"LY3001","responsibleState":"SERBIA / MONTENEGRO","city":"BEOGRAD","name":"BD AGRO - DOBANOVCI","icao":null,"iata":null,"type":"HP","lat":44.818633,"lng":20.206744,"effectiveDate":1473976800000},{"id":4,"identifier":"LYBJ","responsibleState":"SERBIA / MONTENEGRO","city":"BEOGRAD","name":"LISICJI JARAK","icao":"LYBJ","iata":null,"type":"AD","lat":44.939522,"lng":20.445644,"effectiveDate":1473976800000},{"id":5,"identifier":"LYBE","responsibleState":"SERBIA / MONTENEGRO","city":"BEOGRAD","name":"NIKOLA TESLA","icao":"LYBE","iata":"BEG","type":"AH","lat":44.819383,"lng":20.307067,"effectiveDate":1461880800000},{"id":6,"identifier":"LYBR","responsibleState":"SERBIA / MONTENEGRO","city":"BERANE","name":"DOLAC","icao":"LYBR","iata":"IVG","type":"AD","lat":42.839103,"lng":19.862119,"effectiveDate":1473976800000},{"id":7,"identifier":"LY2302","responsibleState":"SERBIA / MONTENEGRO","city":"BOGATIC","name":"BOGATIC","icao":null,"iata":null,"type":"AD","lat":44.826642,"lng":19.499667,"effectiveDate":1473976800000},{"id":8,"identifier":"LYBO","responsibleState":"SERBIA / MONTENEGRO","city":"BOR","name":"BOR","icao":"LYBO","iata":"TGP","type":"AH","lat":44.01835,"lng":22.137203,"effectiveDate":1473976800000},{"id":9,"identifier":"LYBS","responsibleState":"SERBIA / MONTENEGRO","city":"BUDVA","name":"SPLENDID","icao":null,"iata":null,"type":"HP","lat":42.282131,"lng":18.865631,"effectiveDate":1473976800000},{"id":10,"identifier":"LY2205","responsibleState":"SERBIA / MONTENEGRO","city":"CACAK","name":"RAVAN","icao":null,"iata":null,"type":"AD","lat":43.897956,"lng":20.434847,"effectiveDate":1473976800000},{"id":11,"identifier":"LY2308","responsibleState":"SERBIA / MONTENEGRO","city":"CESLJEVA BARA","name":"PEK","icao":null,"iata":null,"type":"AD","lat":44.602183,"lng":21.492983,"effectiveDate":1482188400000},{"id":12,"identifier":"LY2206","responsibleState":"SERBIA / MONTENEGRO","city":"JAGODINA","name":"BARUTANA","icao":null,"iata":null,"type":"AD","lat":43.977017,"lng":21.228833,"effectiveDate":1473976800000},{"id":13,"identifier":"LYKI","responsibleState":"SERBIA / MONTENEGRO","city":"KIKINDA","name":"KIKINDA","icao":"LYKI","iata":null,"type":"AD","lat":45.768097,"lng":20.417267,"effectiveDate":1473976800000},{"id":14,"identifier":"LYKT","responsibleState":"SERBIA / MONTENEGRO","city":"KOSTOLAC","name":"KOSTOLAC","icao":"LYKT","iata":null,"type":"AD","lat":44.734761,"lng":21.161881,"effectiveDate":1473976800000},{"id":15,"identifier":"LYKA","responsibleState":"SERBIA / MONTENEGRO","city":"KRALJEVO","name":"BREGE","icao":"LYKA","iata":null,"type":"AH","lat":43.731817,"lng":20.717942,"effectiveDate":1473976800000},{"id":16,"identifier":"LYKV","responsibleState":"SERBIA / MONTENEGRO","city":"KRALJEVO","name":"LADJEVCI","icao":"LYKV","iata":null,"type":"AH","lat":43.818103,"lng":20.586092,"effectiveDate":1425510000000},{"id":17,"identifier":"LYKS","responsibleState":"SERBIA / MONTENEGRO","city":"KRUSEVAC","name":"KOSIRSKO POLJE","icao":"LYKS","iata":null,"type":"AD","lat":43.561961,"lng":21.336608,"effectiveDate":1473976800000},{"id":18,"identifier":"LY3003","responsibleState":"SERBIA / MONTENEGRO","city":"MOKRA GORA","name":"MOKRA GORA","icao":null,"iata":null,"type":"HP","lat":43.795256,"lng":19.5077,"effectiveDate":1473976800000},{"id":19,"identifier":"LYNK","responsibleState":"SERBIA / MONTENEGRO","city":"NIKSIC","name":"KAPINO POLJE","icao":"LYNK","iata":null,"type":"AD","lat":42.774319,"lng":18.915144,"effectiveDate":1473976800000},{"id":20,"identifier":"LYNI","responsibleState":"SERBIA / MONTENEGRO","city":"NIS","name":"KONSTANTIN VELIKI","icao":"LYNI","iata":"INI","type":"AD","lat":43.337289,"lng":21.853722,"effectiveDate":1425510000000},{"id":21,"identifier":"LY2303","responsibleState":"SERBIA / MONTENEGRO","city":"NOVA PAZOVA","name":"VOJKA","icao":null,"iata":null,"type":"AD","lat":44.934194,"lng":20.172111,"effectiveDate":1473976800000},{"id":22,"identifier":"LYNS","responsibleState":"SERBIA / MONTENEGRO","city":"NOVI SAD","name":"CENEJ","icao":"LYNS","iata":"QND","type":"AH","lat":45.385731,"lng":19.833844,"effectiveDate":1480978800000},{"id":23,"identifier":"LY3004","responsibleState":"SERBIA / MONTENEGRO","city":"NOVI SAD","name":"CIKLONIZACIJA","icao":null,"iata":null,"type":"HP","lat":45.284211,"lng":19.819278,"effectiveDate":1473976800000},{"id":24,"identifier":"LYPA","responsibleState":"SERBIA / MONTENEGRO","city":"PANCEVO","name":"PANCEVO","icao":"LYPA","iata":"QBG","type":"AD","lat":44.899317,"lng":20.642181,"effectiveDate":1473976800000},{"id":25,"identifier":"LYPN","responsibleState":"SERBIA / MONTENEGRO","city":"PARACIN","name":"DAVIDOVAC","icao":"LYPN","iata":null,"type":"AD","lat":43.86635,"lng":21.486881,"effectiveDate":1480978800000},{"id":26,"identifier":"LYPG","responsibleState":"SERBIA / MONTENEGRO","city":"PODGORICA","name":"PODGORICA","icao":"LYPG","iata":"TGD","type":"AD","lat":42.359394,"lng":19.251878,"effectiveDate":1430344800000},{"id":27,"identifier":"LYPO","responsibleState":"SERBIA / MONTENEGRO","city":"PODGORICA","name":"CEMOVSKO POLJE","icao":"LYPO","iata":null,"type":"AD","lat":42.422367,"lng":19.291011,"effectiveDate":1473976800000},{"id":28,"identifier":"LY3005","responsibleState":"SERBIA / MONTENEGRO","city":"POZEGA","name":"POZEGA","icao":null,"iata":null,"type":"HP","lat":43.839222,"lng":20.077139,"effectiveDate":1473890400000},{"id":29,"identifier":"LY2304","responsibleState":"SERBIA / MONTENEGRO","city":"PRIJEPOLJE","name":"IVANJE","icao":null,"iata":null,"type":"AD","lat":43.348306,"lng":19.648753,"effectiveDate":1473976800000},{"id":30,"identifier":"LYPR","responsibleState":"SERBIA / MONTENEGRO","city":"PRISTINA","name":"PRISTINA","icao":"LYPR","iata":"PRN","type":"AD","lat":42.574111,"lng":21.035744,"effectiveDate":1297292400000},{"id":31,"identifier":"LYPT","responsibleState":"SERBIA / MONTENEGRO","city":"PRISTINA","name":"BATLAVA","icao":"LYPT","iata":null,"type":"AD","lat":42.847203,"lng":21.221006,"effectiveDate":1297292400000},{"id":32,"identifier":"LY2220","responsibleState":"SERBIA / MONTENEGRO","city":"SALAS","name":"RUJARAC","icao":null,"iata":null,"type":"AD","lat":44.156694,"lng":22.316525,"effectiveDate":1473976800000},{"id":33,"identifier":"LY2305","responsibleState":"SERBIA / MONTENEGRO","city":"SAMOS","name":"RADIN SALAS","icao":null,"iata":null,"type":"AD","lat":45.214914,"lng":20.769628,"effectiveDate":1473976800000},{"id":34,"identifier":"LYSD","responsibleState":"SERBIA / MONTENEGRO","city":"SMEDEREVO","name":"RADINAC","icao":"LYSD","iata":null,"type":"AD","lat":44.644686,"lng":20.962594,"effectiveDate":1473976800000},{"id":35,"identifier":"LYSP","responsibleState":"SERBIA / MONTENEGRO","city":"SMEDEREVSKA PALANKA","name":"RUDINE","icao":"LYSP","iata":null,"type":"AD","lat":44.351428,"lng":20.960106,"effectiveDate":1473976800000},{"id":36,"identifier":"LY2307","responsibleState":"SERBIA / MONTENEGRO","city":"SOMBOR","name":"KORA","icao":null,"iata":null,"type":"AD","lat":45.785478,"lng":19.018953,"effectiveDate":1482188400000},{"id":37,"identifier":"LYSM","responsibleState":"SERBIA / MONTENEGRO","city":"SREMSKA MITROVICA","name":"VELIKI RADINCI","icao":"LYSM","iata":null,"type":"AD","lat":45.037381,"lng":19.662558,"effectiveDate":1473976800000},{"id":38,"identifier":"LYSU","responsibleState":"SERBIA / MONTENEGRO","city":"SUBOTICA","name":"SUBOTICA","icao":"LYSU","iata":null,"type":"AD","lat":46.022839,"lng":19.706281,"effectiveDate":1473976800000},{"id":39,"identifier":"LYTV","responsibleState":"SERBIA / MONTENEGRO","city":"TIVAT","name":"TIVAT","icao":"LYTV","iata":"TIV","type":"AD","lat":42.404664,"lng":18.723286,"effectiveDate":1425510000000},{"id":40,"identifier":"LYTR","responsibleState":"SERBIA / MONTENEGRO","city":"TRSTENIK","name":"TRSTENIK","icao":"LYTR","iata":null,"type":"AD","lat":43.614225,"lng":21.030344,"effectiveDate":1473976800000},{"id":41,"identifier":"LYUZ","responsibleState":"SERBIA / MONTENEGRO","city":"UZICE","name":"PONIKVE","icao":"LYUZ","iata":"UZC","type":"AH","lat":43.900853,"lng":19.688814,"effectiveDate":1425510000000},{"id":42,"identifier":"LYVA","responsibleState":"SERBIA / MONTENEGRO","city":"VALJEVO","name":"DIVCI","icao":"LYVA","iata":null,"type":"AD","lat":44.297972,"lng":20.021558,"effectiveDate":1461880800000},{"id":43,"identifier":"LYVR","responsibleState":"SERBIA / MONTENEGRO","city":"VRSAC","name":"VRSAC","icao":"LYVR","iata":null,"type":"AD","lat":45.147708,"lng":21.309736,"effectiveDate":1425510000000},{"id":44,"identifier":"LY2310","responsibleState":"SERBIA / MONTENEGRO","city":"ZEMUN POLJE","name":"13. MAJ","icao":null,"iata":null,"type":"AH","lat":44.876417,"lng":20.305369,"effectiveDate":1482188400000},{"id":45,"identifier":"LYZR","responsibleState":"SERBIA / MONTENEGRO","city":"ZRENJANIN","name":"ECKA","icao":"LYZR","iata":null,"type":"AH","lat":45.339744,"lng":20.454106,"effectiveDate":1480978800000}]
